[
  {
    "id": 1,
    "name": "University of Pittsburgh",
    "emailDomain": "pitt.edu",
    "lat": 40.444,
    "lng": -79.9532,
    "city": "Pittsburgh"
  },
  {
    "id": 2,
    "name": "Carnegie Mellon University",
    "emailDomain": "cmu.edu",
    "lat": 40.4433,
    "lng": -79.944,
    "city": "Pittsburgh"
  },
  {
    "id": 3,
    "name": "Duquesne University",
    "emailDomain": "duq.edu",
    "lat": 40.4374,
    "lng": -79.9909,
    "city": "Pittsburgh"
  },
  {
    "id": 4,
    "name": "Carlow University",
    "emailDomain": "carlow.edu",
    "lat": 40.4397,
    "lng": -79.9642,
    "city": "Pittsburgh"
  },
  {
    "id": 5,
    "name": "Point Park University",
    "emailDomain": "pointpark.edu",
    "lat": 40.4387,
    "lng": -80.0019,
    "city": "Pittsburgh"
  },
  {
    "id": 6,
    "name": "Chatham University",
    "emailDomain": "chatham.edu",
    "lat": 40.4492,
    "lng": -79.9258,
    "city": "Pittsburgh"
  },
  {
    "id": 7,
    "name": "Community College of Allegheny County",
    "emailDomain": "ccac.edu",
    "lat": 40.445,
    "lng": -80.018,
    "city": "Pittsburgh"
  },
  {
    "id": 8,
    "name": "Robert Morris University",
    "emailDomain": "rmu.edu",
    "lat": 40.5206,
    "lng": -80.2106,
    "city": "Pittsburgh"
  },
  {
    "id": 9,
    "name": "Seton Hill University",
    "emailDomain": "setonhill.edu",
    "lat": 40.3092,
    "lng": -79.5567,
    "city": "Pittsburgh"
  },
  {
    "id": 10,
    "name": "Saint Vincent College",
    "emailDomain": "stvincent.edu",
    "lat": 40.2931,
    "lng": -79.4036,
    "city": "Pittsburgh"
  },
  {
    "id": 11,
    "name": "University of Pittsburgh at Greensburg",
    "emailDomain": "greensburg.pitt.edu",
    "lat": 40.2766,
    "lng": -79.5316,
    "city": "Pittsburgh"
  },
  {
    "id": 12,
    "name": "PennWest California",
    "emailDomain": "calu.edu",
    "lat": 40.0656,
    "lng": -79.8853,
    "city": "Pittsburgh"
  },
  {
    "id": 13,
    "name": "Washington & Jefferson College",
    "emailDomain": "washjeff.edu",
    "lat": 40.1709,
    "lng": -80.2392,
    "city": "Pittsburgh"
  },
  {
    "id": 14,
    "name": "Waynesburg University",
    "emailDomain": "waynesburg.edu",
    "lat": 39.9006,
    "lng": -80.1867,
    "city": "Pittsburgh"
  },
  {
    "id": 15,
    "name": "Slippery Rock University",
    "emailDomain": "sru.edu",
    "lat": 41.0639,
    "lng": -80.0423,
    "city": "Pittsburgh"
  },
  {
    "id": 16,
    "name": "Indiana University of Pennsylvania",
    "emailDomain": "iup.edu",
    "lat": 40.6175,
    "lng": -79.1603,
    "city": "Pittsburgh"
  },
  {
    "id": 17,
    "name": "Stanford University",
    "emailDomain": "stanford.edu",
    "lat": 37.4275,
    "lng": -122.1697,
    "city": "San Francisco"
  },
  {
    "id": 18,
    "name": "University of California, Berkeley",
    "emailDomain": "berkeley.edu",
    "lat": 37.8715,
    "lng": -122.273,
    "city": "San Francisco"
  },
  {
    "id": 19,
    "name": "San Francisco State University",
    "emailDomain": "sfsu.edu",
    "lat": 37.7219,
    "lng": -122.4782,
    "city": "San Francisco"
  },
  {
    "id": 20,
    "name": "University of San Francisco",
    "emailDomain": "usfca.edu",
    "lat": 37.775,
    "lng": -122.45,
    "city": "San Francisco"
  },
  {
    "id": 21,
    "name": "Harvard University",
    "emailDomain": "harvard.edu",
    "lat": 42.377,
    "lng": -71.1167,
    "city": "Boston"
  },
  {
    "id": 22,
    "name": "Massachusetts Institute of Technology",
    "emailDomain": "mit.edu",
    "lat": 42.3601,
    "lng": -71.0942,
    "city": "Boston"
  },
  {
    "id": 23,
    "name": "Boston University",
    "emailDomain": "bu.edu",
    "lat": 42.3505,
    "lng": -71.1054,
    "city": "Boston"
  },
  {
    "id": 24,
    "name": "Northeastern University",
    "emailDomain": "northeastern.edu",
    "lat": 42.3398,
    "lng": -71.0892,
    "city": "Boston"
  }
]